City,Cloudiness,Country,Date,Humidity,Lat,Lng,Max Temp (F),Wind Speed
Qaryat Sulūq,0,LY,1632688884,59,31.6682,20.2521,73.09,11.97
Bethel,40,US,1632688884,52,41.3712,-73.414,71.69,1.01
Busselton,80,AU,1632688884,89,-33.65,115.3333,57.04,14.76
Punta Arenas,40,CL,1632688885,53,-53.15,-70.9167,48.31,18.41
Mataura,5,NZ,1632688885,70,-46.1927,168.8643,41.49,2.15
Takoradze,100,GH,1632688886,91,4.8845,-1.7554,75.15,6.89
Haines Junction,100,CA,1632688886,65,60.7522,-137.5108,39.15,2.3
Atuona,6,PF,1632688886,71,-9.8,-139.0333,78.06,17.58
Chifeng,57,CN,1632688887,88,42.2683,118.9636,57.34,4.94
Cherskiy,100,RU,1632688887,99,68.75,161.3,32.45,18.59
Cape Town,0,ZA,1632688687,82,-33.9258,18.4232,61.21,1.99
Hithadhoo,100,MV,1632688887,71,-0.6,73.0833,82.6,16.93
Dandong,100,CN,1632688640,83,40.1292,124.3947,64.22,1.05
Kruisfontein,88,ZA,1632688888,95,-34.0033,24.7314,60.89,8.48
Pevek,100,RU,1632688888,93,69.7008,170.3133,30.6,18.63
Kahului,40,US,1632688790,76,20.8947,-156.47,86.97,28.77
Ribeira Grande,75,PT,1632688889,82,38.5167,-28.7,66.6,20.71
Xining,100,CN,1632688748,80,36.6167,101.7667,49.3,2.37
Port Alfred,40,ZA,1632688889,83,-33.5906,26.891,65.98,20.29
Kabompo,66,ZM,1632688890,28,-13.5927,24.2008,71.78,0.87
Jamestown,90,US,1632688811,55,42.097,-79.2353,67.32,11.99
Berlin,0,DE,1632688754,78,52.5244,13.4105,68.36,8.01
Bilma,0,NE,1632688763,15,18.6853,12.9164,87.08,10.76
Butaritari,100,KI,1632688890,74,3.0707,172.7902,83.71,16.15
Albany,8,US,1632688666,48,42.6001,-73.9662,69.46,8.57
Bluff,24,NZ,1632688891,73,-46.6,168.3333,41.81,9.15
George Town,40,MY,1632688891,94,5.4112,100.3354,76.95,3.0
Dwārka,30,IN,1632688892,85,22.2394,68.9678,81.37,11.65
Tiksi,100,RU,1632688892,95,71.6872,128.8694,33.94,8.77
Bredasdorp,1,ZA,1632688893,88,-34.5322,20.0403,56.52,5.75
Rikitea,7,PF,1632688893,72,-23.1203,-134.9692,74.01,20.11
Longyearbyen,75,SJ,1632688819,87,78.2186,15.6401,39.04,4.61
Lebu,28,CL,1632688894,63,-37.6167,-73.65,50.95,22.17
Kapaa,75,US,1632688894,75,22.0752,-159.319,82.38,4.0
Ilulissat,0,GL,1632688894,49,69.2167,-51.1,21.22,3.44
Talnakh,37,RU,1632688895,56,69.4865,88.3972,32.68,7.78
Tipuani,69,BO,1632688895,45,-15.5648,-68.0185,86.65,1.07
Benguela,2,AO,1632688895,78,-12.5763,13.4055,70.47,5.75
Rezh,100,RU,1632688896,61,57.37,61.4043,38.98,12.73
Avarua,75,CK,1632688896,69,-21.2078,-159.775,78.85,3.44
Oktyabr'skiy,100,RU,1632688713,79,54.4815,53.471,50.09,14.63
Hobart,20,AU,1632688896,90,-42.8794,147.3294,42.12,3.0
Half Moon Bay,90,US,1632688897,69,37.4636,-122.4286,78.91,8.05
Tuktoyaktuk,90,CA,1632688897,86,69.4541,-133.0374,33.8,16.11
Altamont,1,US,1632688898,22,42.2068,-121.7372,79.79,3.0
Port Keats,93,AU,1632688898,85,-14.25,129.55,75.56,5.73
Norman Wells,75,CA,1632688898,65,65.282,-126.8329,37.44,17.27
Usinsk,100,RU,1632688899,71,65.9939,57.5281,35.83,7.87
Province of Mantua,95,IT,1632688899,89,45.1667,10.7833,67.69,3.53
Muncar,87,ID,1632688899,87,-8.4333,114.3333,74.84,3.56
Vaini,75,TO,1632688900,83,-21.2,-175.2,73.56,3.44
Batagay,88,RU,1632688900,97,67.6333,134.6333,31.12,2.91
Yar-Sale,0,RU,1632688900,84,66.8333,70.8333,32.79,7.05
Hermanus,34,ZA,1632688901,91,-34.4187,19.2345,59.9,7.58
Qaanaaq,21,GL,1632688901,65,77.484,-69.3632,19.6,8.12
Leningradskiy,96,RU,1632688902,78,69.3833,178.4167,24.69,8.63
Yaan,82,NG,1632688902,93,7.3833,8.5667,72.18,6.13
Pombia,40,IT,1632688902,95,45.653,8.6336,65.28,4.61
Bathsheba,40,BB,1632688903,66,13.2167,-59.5167,88.41,9.22
Ushuaia,40,AR,1632688903,49,-54.8,-68.3,46.06,0.0
Nome,90,US,1632688718,75,64.5011,-165.4064,36.16,12.66
Ancud,13,CL,1632688904,62,-41.8697,-73.8203,53.13,8.37
Samarai,42,PG,1632688904,87,-10.6167,150.6667,79.21,13.04
Thompson,40,CA,1632688904,51,55.7435,-97.8558,62.76,9.22
Tulsīpur,89,NP,1632688905,83,28.131,82.2973,74.37,3.31
Orchard Homes,1,US,1632688905,26,46.8633,-114.0484,84.27,4.61
Palmer,40,US,1632688905,46,42.1584,-72.3287,71.53,1.99
Uulu,12,EE,1632688906,81,58.2789,24.5774,46.58,5.68
Lagoa,99,PT,1632688906,69,39.05,-27.9833,66.9,23.11
Muzhi,34,RU,1632688906,86,65.3667,64.6667,30.34,5.91
Vila Velha,0,BR,1632688907,69,-20.3297,-40.2925,79.97,19.57
Atherton,99,GB,1632688907,77,53.5237,-2.4935,64.78,8.99
Torbay,90,CA,1632688908,70,47.6666,-52.7314,60.28,10.36
Kropotkin,100,RU,1632688908,84,45.4375,40.5756,60.04,16.98
Vardø,75,NO,1632688908,81,70.3705,31.1107,47.95,17.27
New Norfolk,17,AU,1632688909,77,-42.7826,147.0587,41.76,2.75
Bengkulu,100,ID,1632688909,89,-3.8004,102.2655,75.42,5.19
Hilo,90,US,1632688909,90,19.7297,-155.09,78.8,5.75
Ostrovnoy,93,RU,1632688909,92,68.0531,39.5131,44.46,10.76
Chui,1,UY,1632688910,83,-33.6971,-53.4616,62.06,6.89
Ouadda,96,CF,1632688910,95,8.0777,22.4007,67.82,2.3
Port Blair,99,IN,1632688910,87,11.6667,92.75,79.72,12.5
Kitimat,100,CA,1632688904,28,54.0524,-128.6534,57.58,1.88
Ilembo,30,TZ,1632688911,68,-9.25,33.3833,54.43,3.94
Oddur,33,SO,1632688911,63,4.1213,43.8894,73.26,15.12
Castaños,29,MX,1632688912,35,26.7833,-101.4167,86.5,6.62
Lüderitz,76,NA,1632688912,92,-26.6481,15.1594,58.33,11.7
East London,32,ZA,1632688912,82,-33.0153,27.9116,66.25,16.4
Yellowknife,75,CA,1632688913,74,62.456,-114.3525,45.41,1.99
Balabac,27,PH,1632688913,80,7.9868,117.0645,81.12,5.48
Itamaracá,41,BR,1632688913,86,-7.7478,-34.8256,78.85,13.98
Ponta do Sol,59,PT,1632688914,73,32.6667,-17.1,72.72,2.01
Hong Kong,9,HK,1632688364,80,22.2855,114.1577,84.33,1.01
Akdepe,3,TM,1632688914,58,42.0551,59.3788,53.69,14.34
Mahébourg,75,MU,1632688915,94,-20.4081,57.7,70.09,11.5
Maniitsoq,0,GL,1632688915,51,65.4167,-52.9,32.49,3.02
Yulara,51,AU,1632688915,22,-25.2406,130.9889,66.04,0.0
Adrar,18,MR,1632688916,11,20.5022,-10.0711,97.61,8.63
Katsuura,21,JP,1632688916,78,35.1333,140.3,66.31,14.76
Arraial do Cabo,0,BR,1632688917,60,-22.9661,-42.0278,75.16,17.27
Batagay-Alyta,60,RU,1632688917,87,67.8006,130.4114,23.63,4.23
Sitka,40,US,1632688917,58,57.0531,-135.33,53.49,5.75
Honolulu,20,US,1632688832,66,21.3069,-157.8583,84.02,1.01
Kiryat Gat,0,IL,1632688918,100,31.61,34.7642,78.91,4.68
Puerto Ayora,81,EC,1632688918,85,-0.7393,-90.3518,80.56,9.82
Barrow,90,US,1632688918,86,71.2906,-156.7887,23.02,9.22
Fairbanks,90,US,1632688919,82,64.8378,-147.7164,35.31,1.01
Kieta,88,PG,1632688919,79,-6.2167,155.6333,80.94,1.48
Saskylakh,100,RU,1632688919,99,71.9167,114.0833,34.23,10.27
Moyale,87,KE,1632688920,44,3.5167,39.0584,74.82,6.13
Souillac,75,MU,1632688920,94,-20.5167,57.5167,70.18,11.5
Serenje,56,ZM,1632688920,38,-13.2325,30.2352,70.09,9.84
Dunedin,8,NZ,1632688622,84,-45.8742,170.5036,39.79,2.89
Mar del Plata,75,AR,1632688886,63,-38.0023,-57.5575,55.09,5.01
Mayo,1,US,1632688921,41,38.8876,-76.5119,77.38,7.0
Dikson,100,RU,1632688921,86,73.5069,80.5464,36.14,22.17
Petropavlovsk-Kamchatskiy,0,RU,1632688922,100,53.0452,158.6483,36.19,6.71
Cabo San Lucas,12,MX,1632688922,69,22.8909,-109.9124,95.5,6.15
Marawi,76,PH,1632688923,91,7.9986,124.2928,65.64,3.85
Upernavik,0,GL,1632688923,64,72.7868,-56.1549,24.75,2.66
Dalby,93,AU,1632688924,72,-27.1833,151.2667,58.98,5.01
Valparaíso,0,CL,1632688734,55,-33.0393,-71.6273,73.04,13.8
Rio Grande,1,BR,1632688924,85,-32.035,-52.0986,69.91,8.34
Tasiilaq,18,GL,1632688924,70,65.6145,-37.6368,35.76,1.68
Chongqing,90,CN,1632688925,73,29.5628,106.5528,78.22,5.99
Victor Harbor,98,AU,1632688925,53,-35.5667,138.6167,57.72,9.26
Bonavista,96,CA,1632688925,84,48.6499,-53.1147,61.12,11.34
Kiunga,100,PG,1632688926,100,-6.1219,141.2906,73.78,0.94
Tripoli,83,LY,1632688926,57,32.8752,13.1875,78.62,15.57
Ha Giang,18,VN,1632688918,91,22.8333,104.9833,73.18,2.98
Zhangjiakou,43,CN,1632688927,92,40.81,114.8794,55.42,1.28
Saldanha,0,ZA,1632688927,87,-33.0117,17.9442,60.85,21.79
Okny,49,UA,1632688927,65,47.5404,29.46,55.44,7.14
Vila Franca do Campo,100,PT,1632688928,88,37.7167,-25.4333,71.2,6.85
Alofi,40,NU,1632688928,65,-19.0595,-169.9187,76.89,4.61
Boralday,40,KZ,1632688928,35,43.3578,76.8594,51.66,2.24
São Filipe,30,CV,1632688929,77,14.8961,-24.4956,79.18,5.06
Piltene,17,LV,1632688929,100,57.2243,21.6744,40.95,0.0
Hibbing,1,US,1632688930,35,47.4272,-92.9377,78.3,5.39
Hobyo,41,SO,1632688930,79,5.3505,48.5268,77.92,26.98
Krasnosel'kup,26,RU,1632688930,88,65.7,82.4667,33.1,7.2
Denpasar,20,ID,1632688749,83,-8.65,115.2167,78.46,8.05
São José da Coroa Grande,35,BR,1632688931,86,-8.8978,-35.1478,75.88,12.97
Mount Gambier,83,AU,1632688931,87,-37.8333,140.7667,40.91,9.22
Muisne,95,EC,1632688931,82,0.6,-80.0333,82.51,12.21
Vao,99,NC,1632688932,68,-22.6667,167.4833,67.69,4.65
Pochutla,72,MX,1632688932,61,15.7432,-96.4661,87.01,6.62
Novichikha,9,RU,1632688932,89,52.204,81.3877,27.07,5.91
Nikolskoye,66,RU,1632688933,98,59.7035,30.7861,49.89,4.79
Wakkanai,3,JP,1632688933,82,45.4094,141.6739,57.79,10.0
Presidencia Roque Sáenz Peña,0,AR,1632688934,22,-26.7852,-60.4388,89.74,5.95
Teahupoo,8,PF,1632688934,76,-17.8333,-149.2667,78.76,13.94
Nagua,20,DO,1632688934,70,19.3832,-69.8474,92.44,11.5
Lerwick,100,GB,1632688935,97,60.1545,-1.1494,55.4,27.11
Brae,100,GB,1632688935,96,60.3964,-1.353,55.31,22.86
Cidreira,1,BR,1632688936,90,-30.1811,-50.2056,66.02,5.86
Mapimí,83,MX,1632688936,32,25.8167,-103.85,85.17,6.49
Praia,20,CV,1632688936,74,14.9215,-23.5087,81.14,12.66
Kavieng,97,PG,1632688937,80,-2.5744,150.7967,81.16,5.88
Iralaya,100,HN,1632688937,80,15.0,-83.2333,82.04,7.27
Kuching,40,MY,1632688715,94,1.55,110.3333,77.22,2.3
Iqaluit,75,CA,1632688937,80,63.7506,-68.5145,35.33,18.01
Castro,57,BR,1632688938,68,-24.7911,-50.0119,66.88,2.84
Berlevåg,75,NO,1632688938,71,70.8578,29.0864,48.2,18.41
Arman',31,RU,1632688660,68,59.7,150.1667,36.95,8.93
Bharatpur,36,IN,1632688939,89,27.2167,77.4833,76.55,5.68
Te Anau,12,NZ,1632688939,71,-45.4167,167.7167,38.64,0.27
Athabasca,99,CA,1632688864,43,54.7169,-113.2854,69.49,12.24
Launceston,90,AU,1632688940,90,-41.45,147.1667,42.15,6.91
Vágur,100,FO,1632688940,89,61.4732,-6.8119,49.57,21.16
Khairāgarh,72,IN,1632688940,86,26.95,77.8167,78.17,6.31
Mokhsogollokh,100,RU,1632688941,95,61.4681,128.9203,30.06,5.91
Gushikawa,1,JP,1632688941,96,26.3544,127.8686,79.83,5.75
Santa María Rayón,100,MX,1632688941,77,19.1444,-99.5836,71.91,3.0
Kapit,92,MY,1632688942,99,2.0167,112.9333,73.11,0.87
Vostok,49,RU,1632688942,93,46.4856,135.8833,44.1,3.53
Mersing,77,MY,1632688942,94,2.4312,103.8405,75.11,5.75
Bara,15,NG,1632688943,73,10.3744,10.7288,76.93,7.47
Hasaki,5,JP,1632688943,68,35.7333,140.8333,64.8,15.43
Esperance,74,AU,1632688944,89,-33.8667,121.9,53.44,16.87
Maningrida,57,AU,1632688944,83,-12.0667,134.2667,73.42,4.54
Vila,100,PT,1632688944,90,42.0304,-8.1588,56.34,6.04
Shagonar,62,RU,1632688945,64,51.5333,92.8,33.19,9.69
Plouzané,90,FR,1632688945,91,48.3833,-4.6167,64.49,18.41
Auki,99,SB,1632688945,81,-8.7676,160.7034,79.92,3.31
Bambous Virieux,75,MU,1632688946,94,-20.3428,57.7575,70.05,11.5
Muscle Shoals,20,US,1632688946,50,34.7448,-87.6675,82.99,3.0
Ndélé,92,CF,1632688946,94,8.4109,20.6473,70.59,2.95
Santa María del Oro,92,MX,1632688947,38,25.9333,-105.3667,79.79,1.52
Khatanga,100,RU,1632688947,87,71.9667,102.5,31.3,9.15
Isangel,59,VU,1632688947,73,-19.55,169.2667,73.51,2.3
Gulfport,1,US,1632688738,52,30.3674,-89.0928,86.29,9.22
Buchanan,100,LR,1632688898,93,5.8808,-10.0467,78.76,8.39
Bonthe,100,SL,1632688948,90,7.5264,-12.505,76.66,6.71
Port Elizabeth,90,ZA,1632688948,94,-33.918,25.5701,63.1,8.05
Coquimbo,0,CL,1632688948,72,-29.9533,-71.3436,62.33,13.8
Ambo,57,PE,1632688949,48,-10.1308,-76.2047,74.01,11.39
Klaksvík,100,FO,1632688949,86,62.2266,-6.589,50.92,21.74
Anadyr,20,RU,1632688949,92,64.75,177.4833,28.9,1.99
Huarmey,20,PE,1632688950,75,-10.0681,-78.1522,67.8,9.26
Khanbari,65,NP,1632688950,79,27.3747,87.2039,70.23,3.44
Quelimane,0,MZ,1632688951,88,-17.8786,36.8883,75.15,4.61
Turukhansk,34,RU,1632688951,84,65.8167,87.9833,33.93,5.93
Maple Creek,36,CA,1632688951,19,49.9168,-109.4848,81.09,16.11
Richards Bay,91,ZA,1632688952,92,-28.783,32.0377,65.07,4.72
Cairo,0,EG,1632688798,61,30.0626,31.2497,77.76,10.36
Longkou,100,CN,1632688952,94,37.6508,120.3286,67.15,6.11
Carnarvon,0,AU,1632688952,82,-24.8667,113.6333,59.07,6.91
Egvekinot,14,RU,1632688953,74,66.3167,-179.1667,23.58,1.05
Arkhara,100,RU,1632688953,78,49.4212,130.0842,54.73,13.58
Basoko,89,CD,1632688953,93,1.2391,23.616,70.16,2.15
Parintins,72,BR,1632688954,68,-2.6283,-56.7358,80.58,2.17
Palana,95,RU,1632688954,74,59.1167,159.9667,42.13,5.55
Agudos,20,BR,1632688955,55,-22.4692,-48.9875,80.85,11.5
Saint-Philippe,59,RE,1632688955,88,-21.3585,55.7679,71.19,13.91
Nanortalik,12,GL,1632688955,74,60.1432,-45.2371,37.85,3.58
Hambantota,100,LK,1632688956,84,6.1241,81.1185,79.38,26.6
Hervey Bay,97,AU,1632688956,76,-25.2986,152.8535,69.04,22.08
San Ignacio,75,BZ,1632688956,74,17.1561,-89.0714,86.14,6.91
Kutum,55,SD,1632688957,60,14.2,24.6667,74.37,5.37
Makakilo City,40,US,1632688957,64,21.3469,-158.0858,82.72,13.8
Pak Phanang,100,TH,1632688957,87,8.3511,100.202,80.08,1.97
Miraflores,88,MX,1632688958,67,19.2167,-98.8083,75.02,2.39
Bagdarin,83,RU,1632688958,89,54.4333,113.6,31.39,4.29
Kaspiysk,1,RU,1632688958,72,42.8816,47.6392,57.38,6.71
Lompoc,90,US,1632688959,77,34.6391,-120.4579,75.02,8.05
Jiayuguan City,71,CN,1632688959,32,39.8167,98.3,59.22,6.06
Chokurdakh,100,RU,1632688959,83,70.6333,147.9167,27.05,12.73
Saint George,1,US,1632688859,25,37.1041,-113.5841,91.44,1.99
Morant Bay,16,JM,1632688765,69,17.8815,-76.4093,89.22,7.87
Prince Rupert,90,CA,1632688960,78,54.3161,-130.3201,53.69,8.05
Matagami,75,CA,1632688960,87,49.7502,-77.6328,51.91,0.0
Aksarka,24,RU,1632688961,86,66.5606,67.7975,30.4,7.29
Aitape,100,PG,1632688961,86,-3.1374,142.3475,78.35,3.87
Kemijärvi,96,FI,1632688961,82,66.7131,27.4306,43.9,8.32
Jalu,0,LY,1632688962,34,29.0331,21.5482,75.78,7.27
Gölköy,0,TR,1632688962,86,40.6875,37.6178,47.61,2.33
Olinda,75,BR,1632688962,69,-8.0089,-34.8553,78.53,17.27
Golyshmanovo,14,RU,1632688963,80,56.3979,68.3728,32.34,12.95
Sri Aman,100,MY,1632688963,100,1.2376,111.4621,77.09,0.0
Bījār,0,IR,1632688963,48,35.8668,47.6051,53.94,3.13
Aykhal,87,RU,1632688964,94,66.0,111.5,24.55,11.45
Poli,56,TZ,1632688964,73,-3.3333,36.8,58.23,4.14
Fengrun,94,CN,1632688964,97,39.8333,118.1167,63.75,3.15
Wilmington,1,US,1632688930,40,34.2257,-77.9447,82.0,12.66
Matara,100,LK,1632688965,88,5.9485,80.5353,77.95,22.08
Severo-Yeniseyskiy,100,RU,1632688965,96,60.3725,93.0408,31.24,5.93
Yinchuan,67,CN,1632688747,42,38.4681,106.2731,64.74,3.18
Lavrentiya,98,RU,1632688966,82,65.5833,-171.0,31.66,6.33
Lodja,88,CD,1632688966,81,-3.4833,23.4333,71.92,1.45
Fiditi,100,NG,1632688967,93,7.7136,3.9172,74.35,4.5
Warrnambool,99,AU,1632688967,72,-38.3833,142.4833,44.82,12.59
Narrabri,0,AU,1632688967,81,-30.3167,149.7833,44.69,3.44
Belaya Gora,100,RU,1632688968,97,68.5333,146.4167,32.41,17.56
Terrell,1,US,1632688968,33,32.736,-96.2753,93.85,8.05
Siocon,100,PH,1632688968,89,7.7061,122.1353,78.24,3.53
Port Hardy,75,CA,1632688969,88,50.6996,-127.4199,55.58,17.27
Atbasar,100,KZ,1632688969,38,51.8,68.3333,41.97,25.55
Popondetta,55,PG,1632688970,91,-8.7537,148.2534,74.82,2.17
Constantine,40,DZ,1632688970,69,36.365,6.6147,76.41,2.3
Sept-Îles,90,CA,1632688970,98,50.2001,-66.3821,57.72,11.01
Shubarshi,93,KZ,1632688971,59,48.5872,57.1869,57.07,10.16
Canyon Lake,49,US,1632688681,31,29.8752,-98.2625,90.99,1.99
Peru,1,US,1632688739,37,40.7537,-86.0689,79.41,18.41
Helong,100,CN,1632688971,97,42.5397,128.9972,55.49,3.31
Torbeyevo,100,RU,1632688971,94,54.0797,43.2473,47.89,12.62
Faanui,17,PF,1632688972,72,-16.4833,-151.75,79.95,14.58
Bandarbeyla,53,SO,1632688972,77,9.4942,50.8122,79.27,18.81
Vanimo,100,PG,1632688972,90,-2.6741,141.3028,77.38,3.98
São Sebastião,10,BR,1632688973,89,-23.76,-45.4097,69.64,2.84
Nouadhibou,54,MR,1632688973,78,20.931,-17.0347,73.38,13.8
Kloulklubed,63,PW,1632688973,77,7.0419,134.2556,77.5,11.07
Tadine,100,NC,1632688974,64,-21.55,167.8833,69.91,7.9
Avera,3,US,1632688974,37,33.194,-82.5271,84.7,1.32
Dudinka,22,RU,1632688974,65,69.4058,86.1778,30.61,6.71
Fountain,1,US,1632688975,13,38.6822,-104.7008,90.86,3.44
Ucluelet,100,CA,1632688699,93,48.9329,-125.5528,59.09,1.99
Port Lincoln,92,AU,1632688975,65,-34.7333,135.8667,55.92,13.0
Nantucket,1,US,1632688975,70,41.2835,-70.0995,73.54,18.41
Berezovyy,73,RU,1632688976,95,51.6667,135.7,47.17,1.12
Marsabit,0,KE,1632688976,44,2.3284,37.9899,70.84,13.29
Cabedelo,32,BR,1632688976,83,-6.9811,-34.8339,75.87,17.65
Skibbereen,100,IE,1632688977,61,51.55,-9.2667,53.4,9.37
Tiarei,8,PF,1632688977,76,-17.5333,-149.3333,84.22,11.7
Itoman,20,JP,1632688978,92,26.1247,127.6694,80.62,9.22
Sosnovka,100,RU,1632688978,80,56.255,51.2842,48.11,9.69
Bowen,30,AU,1632688978,90,-20.0167,148.2333,59.22,8.12
Ratnagiri,86,IN,1632688979,86,16.9833,73.3,77.56,4.94
Narsaq,0,GL,1632688979,53,60.9167,-46.05,43.02,3.74
Ust-Nera,82,RU,1632688979,87,64.5667,143.2,30.15,4.94
Mackay,40,AU,1632688980,94,-21.15,149.2,70.05,5.75
Honningsvåg,75,NO,1632688980,76,70.9821,25.9704,47.95,3.44
Logansport,1,US,1632688980,34,40.7545,-86.3567,79.52,13.8
Grand Gaube,40,MU,1632688980,88,-20.0064,57.6608,70.2,5.01
Abu Samrah,8,SY,1632688981,28,35.3029,37.1841,72.86,3.65
Caxito,53,AO,1632688981,84,-8.5785,13.6643,75.85,4.12
Provincia di Vicenza,100,IT,1632688982,78,45.6667,11.45,67.69,2.08
Lethem,88,GY,1632688982,52,3.3803,-59.7968,89.06,2.53
Redmond,100,US,1632688934,74,47.674,-122.1215,65.28,3.11
Portland,20,US,1632688548,54,45.5234,-122.6762,74.46,3.0
Donskoye,100,RU,1632688982,82,45.4552,41.9741,59.13,22.44
Kirakira,90,SB,1632688983,82,-10.4544,161.9205,80.67,8.57
Padang,100,ID,1632688983,93,-0.9492,100.3543,76.08,1.48
Svarstad,93,NO,1632688983,58,59.399,9.9698,53.26,0.56
Trelew,21,AR,1632688984,15,-43.249,-65.3051,58.73,16.73
Wanning,15,CN,1632688984,87,18.8003,110.3967,78.4,2.51
Khovd,20,MN,1632688984,28,48.0056,91.6419,40.24,0.6
Luanda,20,AO,1632688985,83,-8.8368,13.2343,75.2,5.75
Cuencamé de Ceniceros,89,MX,1632688985,35,24.8711,-103.6964,81.72,6.04
Airai,52,TL,1632688986,70,-8.9266,125.4092,57.69,2.44
Laas,100,IT,1632688986,96,46.6166,10.7002,61.68,3.06
Rurrenabaque,46,BO,1632688986,24,-14.4413,-67.5278,100.53,4.81
Saint Paul Harbor,1,US,1632688987,53,57.79,-152.4072,49.51,18.41
Vestmannaeyjar,97,IS,1632688987,81,63.4427,-20.2734,42.82,5.77
Svetlaya,12,RU,1632688987,65,46.5389,138.3297,52.3,3.71
Sibolga,98,ID,1632688988,91,1.7427,98.7792,75.99,2.64
Yining,14,CN,1632688988,88,29.0361,114.5636,76.14,1.16
Erzin,0,TR,1632688989,30,36.9559,36.2,73.0,3.67
Kangaatsiaq,0,GL,1632688989,49,68.3065,-53.4641,24.26,10.51
Zeya,100,RU,1632688989,94,53.75,127.2667,51.93,11.54
Fort Nelson,75,CA,1632688990,46,58.8053,-122.7002,49.59,6.91
Savinka,88,RU,1632688990,83,50.0785,47.0994,51.4,15.5
Burnie,62,AU,1632688990,85,-41.0667,145.9167,44.22,5.37
Gurkovo,0,BG,1632688892,62,42.6667,25.8,63.5,1.36
San Miguel,20,SV,1632688991,57,13.4833,-88.1833,94.48,0.0
Mazatlán,40,MX,1632688763,77,23.2167,-106.4167,87.76,4.0
Alțâna,10,RO,1632688991,72,45.9333,24.4667,52.72,2.89
Seymchan,19,RU,1632688992,72,62.8833,152.4333,31.51,3.8
San Cristobal,85,VE,1632688727,47,7.7669,-72.225,91.58,7.14
Forsytheganj,0,BY,1632688993,93,52.6333,29.7333,43.56,6.85
Beringovskiy,99,RU,1632688993,81,63.05,179.3167,36.37,2.17
Walvis Bay,3,NA,1632688993,82,-22.9575,14.5053,56.35,6.91
Jérémie,36,HT,1632688994,77,18.65,-74.1167,84.06,3.94
Black River,22,JM,1632688994,64,18.0264,-77.8487,87.8,4.94
Kidal,0,ML,1632688995,12,18.4411,1.4078,90.37,10.33
San Patricio,10,US,1632688995,38,28.017,-97.5169,90.32,12.21
Teya,100,RU,1632688995,93,60.3778,92.6267,35.38,5.77
Kaitangata,13,NZ,1632688996,77,-46.2817,169.8464,46.92,4.83
Liverpool,100,GB,1632688865,78,53.4106,-2.9779,65.17,5.99
Severo-Kuril'sk,94,RU,1632688996,92,50.6789,156.125,49.66,10.92
Saint-Augustin,100,CA,1632688997,98,51.226,-58.6502,57.18,5.26
Arandis,0,NA,1632688997,56,-22.4167,14.9667,61.61,3.8
Baculin,97,PH,1632688997,85,7.4525,126.5842,77.54,4.59
Touros,4,BR,1632688998,81,-5.1989,-35.4608,81.5,16.96
Provideniya,75,RU,1632688998,81,64.3833,-173.3,37.51,8.95
Nemuro,18,JP,1632688998,84,43.3236,145.575,56.68,10.76
Uelzen,74,DE,1632688999,84,52.9667,10.5667,67.05,2.33
Yishui,100,CN,1632688999,98,35.7847,118.6281,67.5,4.5
Falam,82,MM,1632688999,94,22.9167,93.6833,61.3,0.27
Clyde River,43,CA,1632689000,83,70.4692,-68.5914,28.54,6.04
Atchison,0,US,1632689000,13,39.563,-95.1216,94.82,23.33
Gōtsuchō,17,JP,1632689000,90,35.0,132.2167,66.72,7.14
Pangai,75,TO,1632689001,57,-19.8,-174.35,75.31,4.61
Tilichiki,100,RU,1632689001,95,60.4667,166.1,39.54,5.21
Ritchie,2,ZA,1632689001,12,-29.038,24.6028,65.41,2.86
Deloraine,47,AU,1632689002,17,-41.5333,146.6667,39.99,1.54
Djibo,74,BF,1632689002,25,14.1022,-1.6306,94.15,1.59
Mizdah,98,LY,1632689002,44,31.4451,12.9801,72.54,8.55
Necochea,100,AR,1632689002,70,-38.5473,-58.7368,51.04,13.33
Nuuk,0,GL,1632689003,57,64.1835,-51.7216,31.87,5.99
La Ronge,75,CA,1632689003,55,55.1001,-105.2842,61.05,3.44
Fomboni,6,KM,1632689003,68,-12.28,43.7425,76.14,4.52
Srednekolymsk,100,RU,1632689004,97,67.45,153.6833,32.92,19.84
Shymkent,0,KZ,1632689004,22,42.3,69.6,66.79,11.18
Kharp,49,RU,1632689005,88,66.8014,65.8081,28.98,2.73
Shibetsu,9,JP,1632689005,92,43.659,145.132,53.02,7.09
Dongli,20,CN,1632689005,100,23.5656,116.8194,75.18,2.24
Tocopilla,15,CL,1632689006,70,-22.092,-70.1979,64.67,6.53
Okhotsk,5,RU,1632689006,64,59.3833,143.3,41.14,9.08
Ust-Kuyga,100,RU,1632689006,98,70.0167,135.6,33.12,10.6
Codrington,96,AU,1632689007,78,-38.2667,141.9667,43.54,7.74
Endirey,0,RU,1632689007,50,43.1632,46.654,56.21,6.51
Tamandaré,28,BR,1632688944,87,-8.7597,-35.1047,75.65,12.08
Hirara,8,JP,1632689007,79,24.8,125.2833,82.76,13.02
Dawei,100,MM,1632689008,97,14.0833,98.2,73.83,3.69
Mirpur Sakro,20,PK,1632689008,74,24.5474,67.6277,84.42,9.64
College,75,US,1632688717,82,64.8569,-147.8028,34.29,3.44
Mountain Home,1,US,1632689009,13,43.133,-115.6912,81.34,0.0
Praia da Vitória,75,PT,1632689009,83,38.7333,-27.0667,68.25,20.62
Beloha,33,MG,1632689009,69,-25.1667,45.05,71.02,7.72
São João da Barra,2,BR,1632689010,80,-21.6403,-41.0511,75.29,19.62
Byron Bay,100,AU,1632689010,63,-28.65,153.6167,58.89,11.3
Mount Isa,0,AU,1632689010,22,-20.7333,139.5,64.17,4.61
Waipawa,99,NZ,1632689011,90,-41.4122,175.5153,46.02,9.6
Sisimiut,0,GL,1632689011,52,66.9395,-53.6735,28.69,7.78
Manokwari,16,ID,1632689012,81,-0.8667,134.0833,77.85,2.98
Philadelphia,20,US,1632688817,42,39.9523,-75.1638,74.5,5.01
Palmeirais,19,BR,1632689013,26,-5.9778,-43.0633,91.85,4.29
Whitianga,76,NZ,1632689013,58,-36.8333,175.7,56.01,5.12
Lermontovka,96,RU,1632689014,91,47.1453,134.3383,54.73,4.18
Patnāgarh,100,IN,1632689014,95,20.7167,83.15,74.39,12.03
Warmbad,34,NA,1632689014,21,-28.45,18.7333,76.23,10.18
Tupik,98,RU,1632689015,92,54.4253,119.9327,45.18,6.91
Champerico,87,GT,1632689015,71,14.3,-91.9167,84.34,6.04
Lachi,0,PK,1632689015,51,33.3833,71.3386,81.14,2.64
Chumikan,93,RU,1632689016,74,54.7183,135.315,47.84,5.23
Conde,75,BR,1632689016,94,-7.2597,-34.9075,74.66,14.97
Esim,100,GH,1632689016,90,4.8699,-2.2405,75.47,7.27
Tabuk,19,PH,1632689017,93,17.4189,121.4443,73.45,1.28
Naze,17,JP,1632689017,82,28.3667,129.4833,77.38,12.1
Hanko,14,FI,1632689017,76,59.8333,22.95,50.85,2.53
Tegul'det,42,RU,1632689018,97,57.3064,88.1667,31.19,5.77
Eirunepé,97,BR,1632689018,66,-6.6603,-69.8736,83.26,2.71
Henties Bay,0,NA,1632689018,89,-22.116,14.2845,56.62,4.41
Nizwá,73,OM,1632689019,51,22.9333,57.5333,84.78,4.52
Olafsvik,100,IS,1632689019,87,64.8945,-23.7142,40.19,42.75
San Carlos,100,VE,1632689019,77,9.6612,-68.5827,82.62,2.51
Qaqortoq,1,GL,1632689020,61,60.7167,-46.0333,43.3,0.96
Lata,100,PT,1632689020,93,40.1629,-8.3327,65.91,0.94
Piraí,100,BR,1632689021,93,-22.6292,-43.8981,72.54,2.15
Rome,75,US,1632689021,52,43.2128,-75.4557,68.95,11.5
Majene,77,ID,1632689021,84,-3.5403,118.9707,76.46,7.29
Los Llanos de Aridane,75,ES,1632689022,88,28.6585,-17.9182,71.35,8.05
Tuatapere,6,NZ,1632689022,62,-46.1333,167.6833,41.83,3.78
Mapiripán,21,CO,1632689022,56,2.8892,-72.1256,87.75,3.09
Keti Bandar,100,PK,1632689023,78,24.1447,67.4497,82.49,7.76
Tortolì,40,IT,1632689023,78,39.9256,9.6572,75.02,0.0
Bac Lieu,33,VN,1632689024,86,9.285,105.7244,78.84,6.44
Pisco,0,PE,1632688928,64,-13.7,-76.2167,68.05,19.57
Gumdag,2,TM,1632689024,58,39.2061,54.5906,62.2,5.35
San Policarpo,100,PH,1632689024,86,12.1791,125.5072,77.61,4.05
Norsup,48,VU,1632689025,78,-16.0667,167.3833,77.41,8.43
Makkah al Mukarramah,5,SA,1632688936,53,21.4267,39.8261,85.89,4.54
Ixtapa,97,MX,1632689025,77,20.7,-105.2,87.22,4.0
Puerto Madryn,0,AR,1632688896,21,-42.7692,-65.0385,57.7,16.58
Qasigiannguit,0,GL,1632689026,75,68.8193,-51.1922,21.45,1.66
Sobolevo,27,RU,1632689026,94,54.4299,31.8996,44.4,10.92
Larreynaga,99,NI,1632689026,71,12.6769,-86.5719,91.2,2.35
Casa Nova,0,BR,1632689027,42,-9.4167,-41.1333,93.18,13.91
Ballina,90,AU,1632689027,88,-28.8667,153.5667,58.96,6.91
Honiara,97,SB,1632689027,80,-9.4333,159.95,80.92,3.87
Damāvand,0,IR,1632689028,47,35.7178,52.065,53.44,6.04
Hamilton,1,US,1632689028,41,39.1834,-84.5333,77.65,1.99
Sokur,100,RU,1632689028,98,55.2093,83.319,37.76,9.6
Piranhas,50,BR,1632689029,57,-16.4269,-51.8222,78.04,12.91
Östersund,0,SE,1632689029,71,63.1792,14.6357,52.61,16.11
Merauke,74,ID,1632689029,91,-8.4667,140.3333,76.28,9.73
Hofn,60,IS,1632689030,73,64.2539,-15.2082,44.55,4.03
Japura,99,ID,1632689030,99,-0.3167,102.35,72.41,2.17
Leshukonskoye,100,RU,1632689030,97,64.8989,45.7622,44.53,3.04
Nhulunbuy,54,AU,1632689030,88,-12.2333,136.7667,75.81,2.3
Santa Cruz de la Sierra,9,BO,1632689031,40,-17.8,-63.1667,93.25,18.41
San Quintín,6,MX,1632689031,65,30.4833,-115.95,72.14,12.66
Port Augusta,51,AU,1632689032,40,-32.5,137.7667,44.74,7.96
Boyolangu,78,ID,1632689032,91,-8.1181,111.8935,73.02,2.77
Salalah,20,OM,1632689032,89,17.0151,54.0924,82.49,6.91
Rawson,9,AR,1632689033,22,-43.3002,-65.1023,57.49,14.76
Tecolutla,69,MX,1632689033,71,20.4833,-97.0167,82.18,9.4
Neiafu,20,TO,1632689033,68,-18.65,-173.9833,74.08,2.3
Sanmenxia,100,CN,1632689034,98,34.7747,111.1814,63.25,2.66
Khilok,44,RU,1632689034,88,51.3674,110.4676,30.38,3.67
Negombo,75,LK,1632688865,78,7.2083,79.8358,80.65,13.8
Pacific Grove,40,US,1632689035,76,36.6177,-121.9166,79.61,5.01
Simacota,83,CO,1632689035,60,6.4429,-73.3369,81.63,3.67
Placerville,1,US,1632688854,27,38.7296,-120.7986,88.75,1.99
Grindavik,75,IS,1632689035,81,63.8424,-22.4338,44.55,27.63
Gold Coast,75,AU,1632689036,94,-28.0,153.4333,62.24,4.0
The Valley,40,AI,1632688872,74,18.217,-63.0578,85.86,8.05
Havøysund,100,NO,1632689036,89,70.9963,24.6622,50.88,7.81
Iquitos,40,PE,1632689036,55,-3.7481,-73.2472,89.64,3.44
Sehithwa,0,BW,1632689037,19,-20.4667,22.7167,73.63,6.42
Baishishan,100,CN,1632689037,94,43.5833,127.5667,57.29,2.01
Beyneu,0,KZ,1632688876,68,45.3167,55.2,57.0,14.18
Salinópolis,100,BR,1632689037,76,-0.6136,-47.3561,80.92,14.16
Libreville,40,GA,1632689038,83,0.3925,9.4537,80.62,8.05
Utica,17,US,1632688741,59,43.1009,-75.2327,68.81,1.01
Russell,1,US,1632688776,42,32.3502,-85.1999,83.48,3.44
Santo Antônio do Içá,83,BR,1632689038,80,-3.1022,-67.9397,81.88,0.74
Uyuni,0,BO,1632689039,6,-20.4597,-66.825,60.49,11.54
Pomabamba,80,PE,1632689039,39,-8.8333,-77.4667,63.55,7.83
Yangi Marg`ilon,0,UZ,1632689039,26,40.4272,71.7189,68.72,6.91
Araouane,8,ML,1632689040,8,18.9048,-3.5265,95.14,9.55
Valdivia,10,CL,1632689040,52,-39.8142,-73.2459,57.29,1.74
Dawson Creek,75,CA,1632689040,82,55.7666,-120.2362,56.84,0.0
Pangnirtung,20,CA,1632689041,80,66.1451,-65.7125,33.8,8.05
Lusambo,89,CD,1632689041,78,-4.9667,23.45,73.04,1.39
Şincai,28,RO,1632689041,94,46.65,24.3833,52.99,2.75
Rocha,6,UY,1632688826,83,-34.4833,-54.3333,61.72,6.62
Madang,100,PG,1632689042,92,-5.2246,145.7966,76.87,2.06
Nānākuli,40,US,1632689043,69,21.3906,-158.1547,84.15,13.8
Tura,73,IN,1632688810,84,25.5198,90.2201,76.44,2.66
Prince Albert,75,CA,1632689043,42,53.2001,-105.7677,66.15,9.22
General Roca,76,AR,1632689043,16,-39.0333,-67.5833,61.2,0.63
Diego de Almagro,0,CL,1632689044,18,-26.3667,-70.05,79.41,7.0
Alice Springs,17,AU,1632689044,16,-23.7,133.8833,69.35,5.75
Sudislavl',95,RU,1632689044,95,57.8817,41.7083,45.45,7.83
Solnechnyy,77,RU,1632689045,89,50.7214,136.6319,46.54,3.78
Carauari,66,BR,1632689045,59,-4.8828,-66.8958,87.96,1.12
Maceió,40,BR,1632688928,69,-9.6658,-35.7353,83.64,12.66
Bogo,69,PH,1632689046,81,11.0517,124.0055,78.75,1.97
Luganville,97,VU,1632689046,84,-15.5333,167.1667,76.96,9.28
Virginia Beach,20,US,1632689002,43,36.8529,-75.978,77.09,8.05
Teteven,0,BG,1632689047,58,42.9167,24.2667,60.53,3.47
Inírida,98,CO,1632689047,74,3.8653,-67.9239,83.55,1.25
Oistins,40,BB,1632689047,66,13.0667,-59.5333,87.89,9.22
Galveston,1,US,1632689048,63,29.3669,-94.9669,87.22,1.01
Lebedyn,6,UA,1632689048,87,50.5852,34.4849,45.81,11.1
Bentiu,11,SS,1632689048,91,9.2333,29.8333,72.34,3.22
Mogadishu,16,SO,1632689049,81,2.0371,45.3438,77.95,18.92
Soyo,86,AO,1632689049,84,-6.1349,12.3689,75.36,9.19
Arica,0,CL,1632689049,67,-18.475,-70.3042,71.15,10.36
Verkhoyansk,75,RU,1632689050,89,67.5447,133.385,30.52,2.82
Huadian,100,CN,1632689050,93,42.9633,126.7478,59.11,0.83
Tabas,0,IR,1632689050,34,33.5959,56.9244,76.82,8.28
Khandyga,17,RU,1632689051,92,62.6667,135.6,30.43,2.42
Pizarro,61,CO,1632689051,76,4.9533,-77.366,82.17,8.12
Bereket,22,TM,1632689051,65,39.2446,55.5154,61.5,1.81
Maragogi,34,BR,1632689052,86,-9.0122,-35.2225,75.56,12.48
Rockhampton,40,AU,1632689039,82,-23.3833,150.5,66.09,4.61
Novi Pazar,0,RS,1632689052,55,43.1367,20.5122,62.51,2.53
Dali,72,CN,1632689052,92,25.7,100.1833,58.24,2.75
Tuy Hoa,29,VN,1632689053,92,13.0833,109.3,75.96,3.87
Dingle,62,PH,1632689053,92,10.9995,122.6711,75.34,2.08
Ahipara,100,NZ,1632689053,71,-35.1667,173.1667,54.55,8.12
Luebo,96,CD,1632689054,77,-5.35,21.4167,73.9,0.92
Lamu,8,KE,1632689054,80,-2.2717,40.902,77.22,16.53
Robertsport,100,LR,1632689054,87,6.7533,-11.3686,77.7,10.38
Totness,40,SR,1632689055,77,5.8833,-56.3167,82.81,10.47
Dehui,100,CN,1632689055,90,44.5333,125.7,62.91,11.74
Shirokiy,100,RU,1632689055,81,49.758,129.523,54.14,14.9
Port Hedland,6,AU,1632689056,77,-20.3167,118.5667,62.65,6.91
Glendive,1,US,1632689056,23,47.1053,-104.7125,88.52,3.44
Minas,5,UY,1632689056,70,-34.3759,-55.2377,66.67,3.0
Coria,99,ES,1632689057,59,39.9879,-6.5377,66.45,0.72
Zharkent,0,KZ,1632689057,17,44.1628,80.0,58.59,5.48
Acapulco de Juárez,67,MX,1632688869,69,16.8634,-99.8901,86.07,7.25
San Jose,75,US,1632688810,47,37.3394,-121.895,80.49,6.91
Odoyev,96,RU,1632689058,89,53.9393,36.6864,47.12,13.53
Pringsewu,63,ID,1632689058,96,-5.3582,104.9744,72.59,2.57
Mossamedes,27,AO,1632689058,85,-15.1961,12.1522,62.4,3.24
Tsabong,5,BW,1632689059,15,-26.0217,22.401,73.99,2.42
Khabary,86,RU,1632689059,85,53.6259,79.5345,34.38,4.16
Megion,6,RU,1632689059,85,61.0296,76.1136,30.22,8.21
Roebourne,5,AU,1632689060,44,-20.7833,117.1333,68.43,11.99
Singaraja,46,ID,1632689060,81,-8.112,115.0882,77.97,5.53
Skjervøy,100,NO,1632689060,77,70.0311,20.9714,50.7,12.53
Along,85,IN,1632689061,97,28.1667,94.7667,70.14,2.17
Kuala Terengganu,40,MY,1632689061,94,5.3302,103.1408,76.95,3.44
Solwezi,67,ZM,1632689061,31,-12.1688,26.3894,69.73,2.59
Piaçabuçu,11,BR,1632689062,84,-10.4056,-36.4344,76.01,11.27
George Town,40,MY,1632689062,94,5.4112,100.3354,76.95,3.0
Pittsburg,1,US,1632688851,52,38.028,-121.8847,79.29,3.0
‘Āhuimanu,75,US,1632689063,68,21.4447,-157.8378,83.91,12.66
Beian,0,NO,1632689063,72,63.6559,9.5683,59.09,18.41
General Artigas,0,PY,1632689063,41,-26.9333,-56.2167,87.69,6.13
Urusha,95,RU,1632689064,92,54.05,122.9,46.9,11.18
Taltal,25,CL,1632689064,69,-25.4,-70.4833,64.62,6.82
Tekkali,100,IN,1632689064,93,18.6167,84.2333,78.46,8.93
Rudnyy,100,KZ,1632689065,34,52.9594,63.1206,48.45,22.59
Arkhipo-Osipovka,100,RU,1632689065,86,44.37,38.52,62.71,14.97
Warragul,3,AU,1632689065,78,-38.1667,145.9333,47.64,1.74
Bella Union,0,UY,1632689066,60,-30.2752,-57.6007,73.74,6.6
Río Gallegos,40,AR,1632688891,29,-51.6226,-69.2181,50.05,17.27
Inhambane,0,MZ,1632689066,92,-23.865,35.3833,71.69,8.5
Port Macquarie,96,AU,1632689067,62,-31.4333,152.9167,55.89,2.17
Burgersdorp,0,ZA,1632689067,16,-30.9977,26.3286,64.71,3.02
Ekangala,6,ZA,1632689067,33,-25.6962,28.7492,75.18,11.79
Fonte Boa,68,BR,1632689068,89,-2.4959,-66.2662,76.33,3.98
Bontang,55,ID,1632689068,91,0.1333,117.5,76.12,5.19
Manduria,14,IT,1632689068,67,40.4018,17.6335,73.31,3.83
Kerema,93,PG,1632689069,89,-7.9631,145.7785,77.95,3.44
Feijó,79,BR,1632689069,49,-8.1642,-70.3536,88.32,3.4
Arroio Grande,1,BR,1632689069,83,-32.2375,-53.0869,64.58,7.7
Hay River,75,CA,1632688936,76,60.8156,-115.7999,48.16,9.22
Villa Guerrero,97,MX,1632689070,76,18.8667,-99.65,79.18,3.13
Port-Gentil,75,GA,1632689070,83,-0.7193,8.7815,78.76,10.36
Yerbogachën,100,RU,1632689071,95,61.2767,108.0108,31.93,14.0
Kamenka,72,RU,1632689071,90,51.3223,42.7678,47.05,14.18
São Desidério,100,BR,1632689072,27,-12.3633,-44.9733,87.53,3.65
Pahrump,1,US,1632689072,24,36.2083,-115.9839,92.68,5.01
Calamar,100,CO,1632689072,64,10.2511,-74.9146,89.55,14.16
Zhengjiatun,100,CN,1632689072,94,43.5064,123.5064,62.87,13.11
Ejura,92,GH,1632689073,93,7.3856,-1.3562,72.48,3.87
Yenagoa,100,NG,1632689073,92,4.9247,6.2642,75.07,4.34
Jōetsu,49,JP,1632689074,79,37.1483,138.2364,66.72,8.32
Smithers,75,CA,1632689074,72,54.7804,-127.1743,61.12,6.91
Nur-Sultan,0,KZ,1632688874,42,51.1801,71.446,42.75,20.13
Harper,100,LR,1632689074,91,4.375,-7.7169,75.69,7.38
Road Town,20,VG,1632688910,62,18.4167,-64.6167,89.64,5.75
Baykit,100,RU,1632689075,82,61.67,96.37,35.73,8.03
Clarence Town,8,AU,1632689075,80,-32.5833,151.7833,54.81,2.04
Yumen,45,CN,1632689075,23,40.2833,97.2,59.07,9.22
